"area","name","lat","long","status","note"
"戸塚区","Wed Jan 01 2025 00:00:00 GMT+0900 (日本標準時)","35.4203216004008","139.535722727027","0","味噌ラーメン 雪ぐに"
"戸塚区","Thu Jan 02 2025 00:00:00 GMT+0900 (日本標準時)","35.4017969146254","139.531778384369","0","支那そばや 戸塚本店"
"戸塚区","Fri Jan 03 2025 00:00:00 GMT+0900 (日本標準時)","35.3919455976622","139.521191567202","0","湘南の手前"
"戸塚区","Sat Jan 04 2025 00:00:00 GMT+0900 (日本標準時)","35.3997624644411","139.531751880787","0","地鶏豚骨ひなわ"
"戸塚区","Sun Jan 05 2025 00:00:00 GMT+0900 (日本標準時)","35.4010508074531","139.529774211414","0","中華そば しんの助"