area,name,lat,long,status,note
横浜市戸塚区,味噌ラーメン 雪ぐに,35.4203216004008,139.535722727027,0,ネットで評判の店
横浜市戸塚区,支那そばや 戸塚本店,35.4017969146254,139.531778384369,0,一時代前にラーメン博物館で行列もできていたお店。
横浜市戸塚区,湘南の手前,35.3919455976622,139.521191567202,1,面白いネーミングです
横浜市戸塚区,地鶏豚骨ひなわ,35.3997624644411,139.531751880787,0,新しく発見した店
横浜市戸塚区,中華そば しんの助,35.4010508074531,139.529774211414,0,レビュー見て一度行ったけど・・・うーん
小田原市,中華 四川,35.3166086261504,139.171794123086,1,小田原担々麺発祥の店