[{"area_id":10,"name":"味噌ラーメン 雪ぐに","lat":35.4203216004,"long":139.535722727,"status":0,"note":"ネットで評判の店"},{"area_id":10,"name":"支那そばや 戸塚本店","lat":35.4017969146,"long":139.5317783844,"status":0,"note":"一時代前にラーメン博物館で行列もできていたお店。"},{"area_id":10,"name":"湘南の手前","lat":35.3919455977,"long":139.5211915672,"status":1,"note":"面白いネーミングです"},{"area_id":10,"name":"地鶏豚骨ひなわ","lat":35.3997624644,"long":139.5317518808,"status":0,"note":"新しく発見した店"},{"area_id":10,"name":"中華そば しんの助","lat":35.4010508075,"long":139.5297742114,"status":0,"note":"レビュー見て一度行ったけど・・・うーん"}]